[
  {
    "region": "충청북도 음성군 원남면",
    "beekeeper": "윤현록",
    "address": "충청대로 279번길 54",
    "lat": 36.8547818,
    "lng": 127.621288
  },
  {
    "region": "충청북도 영동군 상촌면",
    "beekeeper": "임모세",
    "address": "유곡리 456",
    "lat": 36.140646,
    "lng": 127.919623
  },
  {
    "region": "전라남도 영암군 신북면",
    "beekeeper": "장은주",
    "address": "수현길 42-25",
    "lat": 34.8535785,
    "lng": 126.7015987
  },
  {
    "region": "경상남도 합천군 합천읍",
    "beekeeper": "정화용",
    "address": "용계길 93",
    "lat": 35.6258032,
    "lng": 128.1694264
  },
  {
    "region": "강원도 원주시 신림면",
    "beekeeper": "권두용",
    "address": "다리실1길 13",
    "lat": 37.2588744,
    "lng": 128.0450337
  },
  {
    "region": "제주특별자치도 제주시 한림읍",
    "beekeeper": "손병곤",
    "address": "금능리 786",
    "lat": 33.3680805,
    "lng": 126.2411255
  },
  {
    "region": "경상남도 의령군 지정면",
    "beekeeper": "박승국",
    "address": "마산리 1284",
    "lat": 35.3715649,
    "lng": 128.4038499
  },
  {
    "region": "전라남도 화순군 동복면",
    "beekeeper": "박정은",
    "address": "밤실길 179",
    "lat": 35.0922016,
    "lng": 127.1501587
  },
  {
    "region": "충청남도 서천군 판교면",
    "beekeeper": "정명수",
    "address": "금덕리 56",
    "lat": 36.146243,
    "lng": 126.7143833
  },
  {
    "region": "경상남도 창원시 의창구 북면",
    "beekeeper": "탁(성명 미상)",
    "address": "214-1",
    "lat": 35.3311058,
    "lng": 128.6062066
  },
  {
    "region": "경기도 안성시",
    "beekeeper": "김명진",
    "address": "봉업사길 102",
    "lat": 37.0850497,
    "lng": 127.4253526
  }
]

